{"future":[{"title":"Webconf.asia","slug":"webconf-asia","starts_on":"2018-06-06 00:00:00","ends_on":"2018-06-09 07:59:00","timezone":"Asia/Hong_Kong","address":"Hong Kong","latitude":"22.396428","longitude":"114.109497","country_code":"HK","blurb":{"html":null},"hashtag":"","url":"https://www.webconf.asia/"},{"title":"Mcr FRED 60","slug":"mcr-fred-60","starts_on":"2018-05-30 18:30:00","ends_on":"2018-05-30 18:00:00","timezone":"Europe/London","address":"Manchester, UK","latitude":"53.480759","longitude":"-2.242631","country_code":"GB","blurb":{"html":null},"hashtag":"","url":"https://s10wen.com/blog/2018/05/04/mcrfred-60-phil-hawksworth/"}],"past":[{"title":"Certified Fresh Events - Modern Web Development with the JAMStack","slug":"certified-fresh-events-modern-web-development-with-the-jamstack","starts_on":"2018-05-23 08:00:00","ends_on":"2018-05-23 18:00:00","timezone":"GMT","address":"Earth","latitude":null,"longitude":null,"country_code":null,"blurb":{"html":null},"hashtag":"","url":"https://certifiedfreshevents.com/events/jamstack/"},{"title":"WeAreDevelopers World Congress","slug":"wearedevelopers-world-congress","starts_on":"2018-05-16 00:00:00","ends_on":"2018-05-19 01:59:00","timezone":"Europe/Vienna","address":"Vienna, Austria","latitude":"48.208174","longitude":"16.373819","country_code":"AT","blurb":{"html":null},"hashtag":"wearedevs","url":"https://www.wearedevelopers.com/"},{"title":"Render Conf","slug":"render-conf","starts_on":"2018-03-23 00:00:00","ends_on":"2018-03-23 23:59:00","timezone":"Europe/London","address":"Oxford, UK","latitude":"51.752021","longitude":"-1.257726","country_code":"GB","blurb":{"html":null},"hashtag":"","url":"https://2018.render-conf.com/"},{"title":"Front-Trends 2017","slug":"front-trends-2017","starts_on":"2017-05-24 02:00:00","ends_on":"2017-05-26 01:59:00","timezone":"Europe/Warsaw","address":"Warsaw, Poland","latitude":"52.229676","longitude":"21.012229","country_code":"PL","blurb":{"html":null},"hashtag":"fronttrends","url":"https://2017.front-trends.com/"},{"title":"beyond tellerrand // DÜSSELDORF 2017","slug":"beyond-tellerrand-duesseldorf-2017","starts_on":"2017-05-15 09:00:00","ends_on":"2017-05-17 20:00:00","timezone":"Europe/Berlin","address":"Düsseldorf, Germany","latitude":"51.227741","longitude":"6.773456","country_code":"DE","blurb":{"html":null},"hashtag":"btconf","url":"https://beyondtellerrand.com/events/duesseldorf-2017/speakers"},{"title":"Front-Trends 2016","slug":"front-trends-2016","starts_on":"2016-05-18 02:00:00","ends_on":"2016-05-19 01:59:00","timezone":"Europe/Warsaw","address":"Warsaw, Poland","latitude":"52.229676","longitude":"21.012229","country_code":"PL","blurb":{"html":null},"hashtag":"fronttrends","url":"https://2016.front-trends.com/"}]}